{"client_id":136696251404,"location":{"address":"Via de Chuy Sevillano, 35, Madrid, Spain","lat":40.4875780223,"lon":-3.7244765414},"order_id":"1d237a40-c2e1-4390-b121-64b44221e7fa","order":{"n_objects":2,"volume":93.4664522009,"weight":47.0203993754},"status":"in_progress","timestamp":"2024-09-24 09:47:05"}
{"client_id":215111912973,"location":{"address":"Ca\u00f1ada de Odalys Calderon, 565, Madrid, Spain","lat":40.6416312722,"lon":-3.7831506721},"order_id":"de303a81-5e16-4d28-8bb1-460a55d340cc","order":{"n_objects":8,"volume":26.4961006003,"weight":14.2887627241},"status":"in_progress","timestamp":"2024-09-24 09:47:14"}
{"client_id":353527829363,"location":{"address":"Camino Samuel Valle, 725, Madrid, Spain","lat":40.5336085575,"lon":-3.5719766289},"order_id":"d514b9e1-f9ec-4c26-bbbf-69d8cf1c930b","order":{"n_objects":3,"volume":61.27751969,"weight":29.195315335},"status":"in_progress","timestamp":"2024-09-24 09:47:36"}
{"client_id":692730467786,"location":{"address":"Urbanizaci\u00f3n Andrea Mendez, 5, Madrid, Spain","lat":40.3881120938,"lon":-3.5973682981},"order_id":"1fcb62ab-9ad4-4ba5-8760-7d9a77e1c291","order":{"n_objects":4,"volume":68.9757773327,"weight":10.8517288562},"status":"in_progress","timestamp":"2024-09-24 09:47:54"}
{"client_id":892330420906,"location":{"address":"Calle Odalis Alcalde, 572, Madrid, Spain","lat":40.5767527612,"lon":-3.5175007806},"order_id":"751a6d09-c8a2-4822-aa71-be714a042bd0","order":{"n_objects":7,"volume":60.5579454177,"weight":48.6045605976},"status":"in_progress","timestamp":"2024-09-24 09:48:18"}
{"client_id":717964713762,"location":{"address":"Via de Sara Bejarano, 760, Madrid, Spain","lat":40.3697518317,"lon":-3.8795293007},"order_id":"53f3a0e8-4578-4bbe-8a89-44458f56a1a3","order":{"n_objects":2,"volume":94.79049252,"weight":44.4030598151},"status":"in_progress","timestamp":"2024-09-24 09:48:48"}
{"client_id":800440403744,"location":{"address":"Via Borja Pedro, 35, Madrid, Spain","lat":40.316531461,"lon":-3.5291688061},"order_id":"c1cc82e6-c5e3-41fa-b155-3b37285ad71c","order":{"n_objects":1,"volume":28.3613494183,"weight":49.9547795887},"status":"in_progress","timestamp":"2024-09-24 09:49:07"}
{"client_id":997423263209,"location":{"address":"Pasaje Mar\u00eda Teresa C\u00e1mara, 26, Madrid, Spain","lat":40.5558738888,"lon":-3.630986535},"order_id":"bd15e61d-f9c2-4c8d-94ed-6a5d1ca7db36","order":{"n_objects":6,"volume":79.6917774596,"weight":37.8105373742},"status":"in_progress","timestamp":"2024-09-24 09:49:17"}
{"client_id":218895680816,"location":{"address":"Camino de R\u00e9gulo Solera, 86, Madrid, Spain","lat":40.5784418998,"lon":-3.6898337894},"order_id":"ce6580ac-581a-456d-8c2d-112a8ad6c02a","order":{"n_objects":8,"volume":22.6787849735,"weight":17.3808540148},"status":"in_progress","timestamp":"2024-09-24 09:49:41"}
{"client_id":265242129129,"location":{"address":"Rambla de Lara Artigas, 99, Madrid, Spain","lat":40.5516016772,"lon":-3.8555049798},"order_id":"4fb5537f-febc-428b-a0e8-b9c51e8edbd3","order":{"n_objects":2,"volume":72.2700625351,"weight":45.4031279147},"status":"in_progress","timestamp":"2024-09-24 09:49:53"}
{"client_id":296238101129,"location":{"address":"Calle de \u00c1ngel Rivas, 95, Madrid, Spain","lat":40.4616879818,"lon":-3.6848901553},"order_id":"7d93c67a-5727-4204-9f22-e09f0c1451e9","order":{"n_objects":8,"volume":38.9177381236,"weight":47.1024556058},"status":"in_progress","timestamp":"2024-09-24 09:50:23"}
{"client_id":817611731527,"location":{"address":"Cuesta Juliana Egea, 665, Madrid, Spain","lat":40.589879338,"lon":-3.7514990333},"order_id":"0e173f30-fc54-45cf-ae01-0fd6bc216062","order":{"n_objects":6,"volume":42.1009757684,"weight":12.8689054247},"status":"in_progress","timestamp":"2024-09-24 09:50:46"}
{"client_id":549080265365,"location":{"address":"Via de Trinidad Quintana, 44, Madrid, Spain","lat":40.3803829319,"lon":-3.7497698515},"order_id":"5f73f4a4-a2cc-4b6e-b3fc-870d6fa07584","order":{"n_objects":4,"volume":49.2424463449,"weight":27.7548140034},"status":"in_progress","timestamp":"2024-09-24 09:50:59"}
{"client_id":509065372037,"location":{"address":"Alameda de Melchor Galan, 8, Madrid, Spain","lat":40.3976863437,"lon":-3.8563122405},"order_id":"3a083f8d-64d0-4cf9-867c-f4d274d2bd70","order":{"n_objects":1,"volume":27.4816184443,"weight":33.597903118},"status":"in_progress","timestamp":"2024-09-24 09:51:06"}
{"client_id":118791685021,"location":{"address":"Plaza Fabiana Giner, 79, Madrid, Spain","lat":40.4729504824,"lon":-3.5930054138},"order_id":"6de0a309-00d1-449a-921b-d2f70fe35e2b","order":{"n_objects":1,"volume":70.7555184142,"weight":48.5791575107},"status":"in_progress","timestamp":"2024-09-24 09:51:30"}
{"client_id":163828891770,"location":{"address":"Glorieta Jos\u00e9 Mari Blanco, 6, Madrid, Spain","lat":40.4283304055,"lon":-3.7949702568},"order_id":"923248bd-b794-4df9-9c6b-17fae76da9a9","order":{"n_objects":2,"volume":30.2306150142,"weight":34.9366049769},"status":"in_progress","timestamp":"2024-09-24 09:51:39"}
{"client_id":702126114457,"location":{"address":"Camino Basilio Molina, 455, Madrid, Spain","lat":40.3795470443,"lon":-3.7306854684},"order_id":"e3e8a284-992a-4caf-8d4e-399b9a486109","order":{"n_objects":9,"volume":11.593549531,"weight":42.7026430434},"status":"in_progress","timestamp":"2024-09-24 09:52:01"}
{"client_id":960978252375,"location":{"address":"Callej\u00f3n de Benjam\u00edn Barco, 45, Madrid, Spain","lat":40.5424255153,"lon":-3.5268851139},"order_id":"0958afe1-f79d-4f9d-b61b-06e5287bc5d3","order":{"n_objects":7,"volume":61.9801589857,"weight":42.5996995395},"status":"in_progress","timestamp":"2024-09-24 09:52:08"}
{"client_id":880159548684,"location":{"address":"Urbanizaci\u00f3n Narcisa Alc\u00e1zar, 84, Madrid, Spain","lat":40.5022831713,"lon":-3.6752122657},"order_id":"473c15ad-730f-4185-b87c-20e5f2816b28","order":{"n_objects":5,"volume":87.0857005223,"weight":38.0232185905},"status":"in_progress","timestamp":"2024-09-24 09:52:32"}
{"client_id":815154158063,"location":{"address":"Callej\u00f3n de Selena Nu\u00f1ez, 51, Madrid, Spain","lat":40.335256665,"lon":-3.7021682518},"order_id":"fcec311c-8c36-48f9-95ce-8425ec582440","order":{"n_objects":1,"volume":98.7544105675,"weight":44.2324428743},"status":"in_progress","timestamp":"2024-09-24 09:53:02"}
{"client_id":565643536564,"location":{"address":"Ronda de Serafina Suarez, 8, Madrid, Spain","lat":40.3400363717,"lon":-3.7307718741},"order_id":"dcbf7312-c632-4576-b588-71218021adc2","order":{"n_objects":6,"volume":14.2501790694,"weight":46.1460171746},"status":"in_progress","timestamp":"2024-09-24 09:53:14"}
{"client_id":424349364168,"location":{"address":"Vial de Eligio Manuel, 147, Madrid, Spain","lat":40.3150706399,"lon":-3.5878977644},"order_id":"d67f622f-5d85-423e-9a9d-4d33d6522d72","order":{"n_objects":1,"volume":99.2087600655,"weight":4.9709690687},"status":"in_progress","timestamp":"2024-09-24 09:53:42"}
{"client_id":617274300063,"location":{"address":"Vial de Adolfo Sevillano, 635, Madrid, Spain","lat":40.3874562191,"lon":-3.8041102803},"order_id":"9998de8d-1817-41b0-bf23-0ba45f476738","order":{"n_objects":2,"volume":84.0562469158,"weight":22.3958975057},"status":"in_progress","timestamp":"2024-09-24 09:54:08"}
{"client_id":707885024024,"location":{"address":"Callej\u00f3n Albert Palmer, 220, Madrid, Spain","lat":40.4970971523,"lon":-3.862325357},"order_id":"e19f0f2f-a51e-4453-88c2-efe8befb69bc","order":{"n_objects":5,"volume":78.8287214462,"weight":10.3798544396},"status":"in_progress","timestamp":"2024-09-24 09:54:36"}
{"client_id":384228566693,"location":{"address":"Pasadizo de Juana Franch, 63, Madrid, Spain","lat":40.504454491,"lon":-3.8799419476},"order_id":"59d83058-b158-4cd8-95d4-dd6bf71efa2e","order":{"n_objects":3,"volume":22.2378273389,"weight":19.8983420094},"status":"in_progress","timestamp":"2024-09-24 09:55:05"}
{"client_id":290170108883,"location":{"address":"Plaza de Ani Zabala, 68, Madrid, Spain","lat":40.5976156225,"lon":-3.6682313322},"order_id":"dd118a1d-30b7-4392-a3ee-b616d2f3d745","order":{"n_objects":2,"volume":85.7819481944,"weight":39.1582817322},"status":"in_progress","timestamp":"2024-09-24 09:55:14"}
{"client_id":831716464559,"location":{"address":"Callej\u00f3n de Natalia Ca\u00f1ete, 5, Madrid, Spain","lat":40.4979078947,"lon":-3.6463207935},"order_id":"ee2a3646-a654-41c3-bd95-e1ba118c57d8","order":{"n_objects":7,"volume":9.0064984968,"weight":10.4445355422},"status":"in_progress","timestamp":"2024-09-24 09:55:29"}
{"client_id":927570528053,"location":{"address":"Ronda de Marino Pedrosa, 68, Madrid, Spain","lat":40.4747976321,"lon":-3.5956626282},"order_id":"60fd7d9f-2054-4f3c-907e-0b8a2407bf10","order":{"n_objects":8,"volume":88.7730480881,"weight":38.1989621747},"status":"in_progress","timestamp":"2024-09-24 09:55:52"}
{"client_id":338973007798,"location":{"address":"Calle de Mar\u00eda Fernanda Alegre, 89, Madrid, Spain","lat":40.4221627298,"lon":-3.864010977},"order_id":"ee0ce9c1-0629-4933-81f2-565596017ce0","order":{"n_objects":1,"volume":61.9357050962,"weight":7.4978638225},"status":"in_progress","timestamp":"2024-09-24 09:56:08"}
{"client_id":687700402074,"location":{"address":"C. de Godofredo Abella, 49, Madrid, Spain","lat":40.4518426759,"lon":-3.6609730492},"order_id":"a9aa2e3c-0893-46d7-8031-2e15bb07857e","order":{"n_objects":4,"volume":63.682303921,"weight":33.7310469356},"status":"in_progress","timestamp":"2024-09-24 09:56:31"}
{"client_id":485400352425,"location":{"address":"Camino de Che Chaparro, 83, Madrid, Spain","lat":40.3890109717,"lon":-3.8585128405},"order_id":"07ab401d-239e-4055-b500-86a9764ebaab","order":{"n_objects":2,"volume":43.0937411433,"weight":38.6934085428},"status":"in_progress","timestamp":"2024-09-24 09:57:01"}
{"client_id":184794770691,"location":{"address":"Acceso Amancio Figueroa, 77, Madrid, Spain","lat":40.6361815671,"lon":-3.8460069096},"order_id":"d60841fe-329f-4e2f-8734-491f3bacc497","order":{"n_objects":4,"volume":66.4447010131,"weight":21.1927849012},"status":"in_progress","timestamp":"2024-09-24 09:57:16"}
{"client_id":766004668702,"location":{"address":"C. Hernando Alvarez, 35, Madrid, Spain","lat":40.4930766619,"lon":-3.7470091893},"order_id":"cefe49bf-c47f-4cbe-a361-5fd12ba6cb38","order":{"n_objects":3,"volume":10.763063773,"weight":41.1632432519},"status":"in_progress","timestamp":"2024-09-24 09:57:45"}
{"client_id":121724126183,"location":{"address":"Camino de Hernando Ripoll, 98, Madrid, Spain","lat":40.3984593605,"lon":-3.6627904285},"order_id":"6491515d-6bda-41e9-8305-24240b21b63d","order":{"n_objects":1,"volume":67.1158433041,"weight":35.3742162348},"status":"in_progress","timestamp":"2024-09-24 09:57:55"}
{"client_id":851782725887,"location":{"address":"Camino de Xiomara Roig, 66, Madrid, Spain","lat":40.3284719552,"lon":-3.8221404461},"order_id":"06ed8063-d256-4389-bfbe-ab3caa761955","order":{"n_objects":2,"volume":30.2157300766,"weight":14.0525585303},"status":"in_progress","timestamp":"2024-09-24 09:58:13"}
{"client_id":555366072967,"location":{"address":"Pasaje \u00darsula Bou, 939, Madrid, Spain","lat":40.4504956792,"lon":-3.5746484753},"order_id":"80f96de6-1967-48f2-9346-fa459f719bef","order":{"n_objects":3,"volume":51.3491220879,"weight":13.5089396467},"status":"in_progress","timestamp":"2024-09-24 09:58:42"}
{"client_id":389843373052,"location":{"address":"Plaza de Nadia Matas, 84, Madrid, Spain","lat":40.4962793433,"lon":-3.5742582625},"order_id":"322821d4-b087-4017-91eb-4993670d242e","order":{"n_objects":1,"volume":95.9273161962,"weight":30.4839337739},"status":"in_progress","timestamp":"2024-09-24 09:59:11"}
{"client_id":558966828003,"location":{"address":"Avenida Francisco Jose Nicolau, 41, Madrid, Spain","lat":40.5237633861,"lon":-3.7098381289},"order_id":"0389af4f-f41a-43b5-8fe3-db1a045c3989","order":{"n_objects":9,"volume":6.8133103054,"weight":43.4822790401},"status":"in_progress","timestamp":"2024-09-24 09:59:40"}
{"client_id":309612791974,"location":{"address":"Acceso Dar\u00edo Dominguez, 64, Madrid, Spain","lat":40.3665190722,"lon":-3.866191225},"order_id":"8096bf56-2e05-4619-a235-a2890416170b","order":{"n_objects":9,"volume":88.0976288924,"weight":44.4100245015},"status":"in_progress","timestamp":"2024-09-24 10:00:03"}
{"client_id":519958901562,"location":{"address":"Paseo Jord\u00e1n M\u00fagica, 5, Madrid, Spain","lat":40.3378931312,"lon":-3.828205372},"order_id":"f195a281-180b-47f9-b521-8fcdb7f09de6","order":{"n_objects":7,"volume":56.2040776683,"weight":19.5017951663},"status":"in_progress","timestamp":"2024-09-24 10:00:23"}
{"client_id":511448419167,"location":{"address":"Vial Jose Luis Aguil\u00f3, 20, Madrid, Spain","lat":40.5137040709,"lon":-3.7050939242},"order_id":"a78ddaec-3bb6-4062-b7b9-48f10c1f3f00","order":{"n_objects":7,"volume":79.9428392537,"weight":18.953793677},"status":"in_progress","timestamp":"2024-09-24 10:00:38"}
{"client_id":391427036546,"location":{"address":"Pasaje de Ruben Cifuentes, 67, Madrid, Spain","lat":40.3428242188,"lon":-3.7154958144},"order_id":"9fc94f0f-4ba1-4342-a012-5935f4609d2d","order":{"n_objects":4,"volume":24.20972612,"weight":25.761855007},"status":"in_progress","timestamp":"2024-09-24 10:01:07"}
{"client_id":200357987826,"location":{"address":"Ca\u00f1ada Andrea Verdugo, 70, Madrid, Spain","lat":40.5255047104,"lon":-3.5453738859},"order_id":"fbb96870-e421-488e-bea7-6c45252478e4","order":{"n_objects":4,"volume":80.0964780138,"weight":33.0743100332},"status":"in_progress","timestamp":"2024-09-24 10:01:19"}
{"client_id":166298064333,"location":{"address":"Callej\u00f3n Aura Roma, 14, Madrid, Spain","lat":40.4550035974,"lon":-3.6398420569},"order_id":"ec506eb6-5838-4913-935b-c706fe7cb06c","order":{"n_objects":5,"volume":71.0187180857,"weight":30.8771927813},"status":"in_progress","timestamp":"2024-09-24 10:01:37"}
{"client_id":870163390073,"location":{"address":"Pasadizo Nando Jover, 82, Madrid, Spain","lat":40.5871093688,"lon":-3.554308288},"order_id":"e269aab7-7a23-400e-8193-1ea474cacf57","order":{"n_objects":5,"volume":33.5015759824,"weight":15.0788284136},"status":"in_progress","timestamp":"2024-09-24 10:02:03"}
{"client_id":717576496420,"location":{"address":"Via Lalo Otero, 9, Madrid, Spain","lat":40.3345972737,"lon":-3.5186995655},"order_id":"f30c516a-a462-4f5c-9cd6-d8ada4a494f1","order":{"n_objects":2,"volume":43.519387615,"weight":35.0949064868},"status":"in_progress","timestamp":"2024-09-24 10:02:31"}
{"client_id":228619354397,"location":{"address":"Paseo \u00c1gata Esparza, 16, Madrid, Spain","lat":40.6221036414,"lon":-3.621402104},"order_id":"c0bbf8b4-8312-4bff-ba66-eadcc8ccbfdb","order":{"n_objects":8,"volume":56.4858155199,"weight":28.3539761581},"status":"in_progress","timestamp":"2024-09-24 10:02:43"}
{"client_id":416989053111,"location":{"address":"Vial Mar\u00eda Bel\u00e9n Chaparro, 40, Madrid, Spain","lat":40.33743822,"lon":-3.549536701},"order_id":"8635493d-7ac1-42ff-bd8a-5d66d7e48b18","order":{"n_objects":7,"volume":37.0876638793,"weight":44.3762563578},"status":"in_progress","timestamp":"2024-09-24 10:02:51"}
{"client_id":578252041995,"location":{"address":"Pasaje de Eliana Fr\u00edas, 255, Madrid, Spain","lat":40.5103695359,"lon":-3.6691142195},"order_id":"1b09c1c4-c4f1-4c32-b575-e59a1ed0b019","order":{"n_objects":8,"volume":87.0239420843,"weight":36.4061700819},"status":"in_progress","timestamp":"2024-09-24 10:03:09"}
{"client_id":711110296643,"location":{"address":"Rambla Florencia Manrique, 36, Madrid, Spain","lat":40.4393001252,"lon":-3.7987311041},"order_id":"7e831866-fdb4-4fbc-8ea8-3d1b97fc0e1c","order":{"n_objects":6,"volume":85.4052330214,"weight":20.7930940769},"status":"in_progress","timestamp":"2024-09-24 10:03:34"}
{"client_id":936232673398,"location":{"address":"Alameda de Melchor Rocamora, 77, Madrid, Spain","lat":40.5489324939,"lon":-3.8506045531},"order_id":"00d9e450-df34-44b0-acd4-96626a401552","order":{"n_objects":8,"volume":7.7141634696,"weight":8.9356554261},"status":"in_progress","timestamp":"2024-09-24 10:03:41"}
{"client_id":211511686107,"location":{"address":"Plaza Eliana Jord\u00e1, 87, Madrid, Spain","lat":40.5775562025,"lon":-3.660596309},"order_id":"6f2b15db-9931-40ac-ba59-2341b956ddcb","order":{"n_objects":7,"volume":34.0044975897,"weight":19.4090594927},"status":"in_progress","timestamp":"2024-09-24 10:04:00"}
{"client_id":679805533818,"location":{"address":"Plaza de Iris Lara, 84, Madrid, Spain","lat":40.3537714758,"lon":-3.5985797567},"order_id":"899f91d3-df13-4ed6-bd45-71f02af73dd4","order":{"n_objects":5,"volume":53.3122425109,"weight":11.8688092759},"status":"in_progress","timestamp":"2024-09-24 10:04:20"}
{"client_id":427489794039,"location":{"address":"Rambla de Lara Mendoza, 430, Madrid, Spain","lat":40.6075650577,"lon":-3.7296092607},"order_id":"05ec4b05-e727-4d39-99d5-392d05758d4d","order":{"n_objects":8,"volume":16.7670502996,"weight":19.0234727529},"status":"in_progress","timestamp":"2024-09-24 10:04:34"}
{"client_id":400837121994,"location":{"address":"Ronda Ricardo Flor, 58, Madrid, Spain","lat":40.6318497377,"lon":-3.7335394854},"order_id":"68bb6741-8e02-4685-8a05-275b5ba52aaa","order":{"n_objects":6,"volume":69.7946170527,"weight":17.0138276245},"status":"in_progress","timestamp":"2024-09-24 10:04:56"}
{"client_id":121516849026,"location":{"address":"Paseo Salom\u00e9 Terr\u00f3n, 54, Madrid, Spain","lat":40.5751424037,"lon":-3.8618844618},"order_id":"a6ff9e18-006b-4c61-a249-4d341591a42e","order":{"n_objects":6,"volume":96.2268494225,"weight":38.8263687989},"status":"in_progress","timestamp":"2024-09-24 10:05:17"}
{"client_id":786206464738,"location":{"address":"C. de Natanael Pombo, 30, Madrid, Spain","lat":40.3368703125,"lon":-3.5448739798},"order_id":"3bcb2eae-e87a-40fe-ae5f-629de55eab90","order":{"n_objects":6,"volume":24.9717721089,"weight":42.0914900881},"status":"in_progress","timestamp":"2024-09-24 10:05:41"}
{"client_id":686183499224,"location":{"address":"Calle de Edu Rosales, 32, Madrid, Spain","lat":40.3782496793,"lon":-3.8610704285},"order_id":"54586753-ce55-483e-8097-6a7e778438bb","order":{"n_objects":5,"volume":12.3858258639,"weight":42.4050300209},"status":"in_progress","timestamp":"2024-09-24 10:05:52"}
{"client_id":373206284386,"location":{"address":"Callej\u00f3n de Manolo Padilla, 6, Madrid, Spain","lat":40.4483053231,"lon":-3.8258440756},"order_id":"6381af91-4b51-4a2b-8555-2d4f313d352f","order":{"n_objects":3,"volume":21.058012783,"weight":4.3423295539},"status":"in_progress","timestamp":"2024-09-24 10:06:09"}
{"client_id":252693239945,"location":{"address":"C. Celestina Quiroga, 353, Madrid, Spain","lat":40.4902959854,"lon":-3.7819729687},"order_id":"e54f523d-eec3-45cf-abc8-e34aa0852b11","order":{"n_objects":5,"volume":49.3634875494,"weight":20.5397912256},"status":"in_progress","timestamp":"2024-09-24 10:06:23"}
{"client_id":367839665533,"location":{"address":"Callej\u00f3n Rodrigo Franco, 74, Madrid, Spain","lat":40.5785808997,"lon":-3.6002173237},"order_id":"2e26047b-f42f-4057-b97e-bc878553175c","order":{"n_objects":6,"volume":53.420958642,"weight":4.5108753099},"status":"in_progress","timestamp":"2024-09-24 10:06:46"}
{"client_id":194934798308,"location":{"address":"Callej\u00f3n de Federico Barber\u00e1, 37, Madrid, Spain","lat":40.4867830101,"lon":-3.5941508972},"order_id":"8a3abee5-774e-4e9d-8528-5ff6b8f91e8e","order":{"n_objects":3,"volume":46.2141521523,"weight":17.6841855413},"status":"in_progress","timestamp":"2024-09-24 10:07:15"}
{"client_id":264414998454,"location":{"address":"C. de Cristian Cortina, 79, Madrid, Spain","lat":40.4414393029,"lon":-3.7898732154},"order_id":"9518b400-a78d-46d0-b2ac-4dce525b8b1e","order":{"n_objects":6,"volume":6.9710969444,"weight":24.7701598227},"status":"in_progress","timestamp":"2024-09-24 10:07:30"}
{"client_id":831935629563,"location":{"address":"Pasadizo de F\u00e1tima Gomila, 97, Madrid, Spain","lat":40.3357134481,"lon":-3.8552933578},"order_id":"292306eb-15d8-48cf-b399-2664377c73c8","order":{"n_objects":6,"volume":26.9890909941,"weight":3.1496984103},"status":"in_progress","timestamp":"2024-09-24 10:07:44"}
{"client_id":300379104580,"location":{"address":"Ronda de Erasmo Rinc\u00f3n, 9, Madrid, Spain","lat":40.4167399068,"lon":-3.6698127462},"order_id":"fc7134b8-b412-4d09-af7e-67d243fb318a","order":{"n_objects":9,"volume":57.7766015666,"weight":38.1254029151},"status":"in_progress","timestamp":"2024-09-24 10:08:10"}
{"client_id":280189563171,"location":{"address":"Plaza de Ferm\u00edn Pav\u00f3n, 25, Madrid, Spain","lat":40.531021541,"lon":-3.6747430945},"order_id":"3253eb89-2b88-4fef-a8d9-de05d1f98b13","order":{"n_objects":1,"volume":3.8151859079,"weight":37.3921195713},"status":"in_progress","timestamp":"2024-09-24 10:08:23"}
{"client_id":306467726873,"location":{"address":"C. de M\u00f3nica Trillo, 8, Madrid, Spain","lat":40.5660494929,"lon":-3.7020146993},"order_id":"822b2315-e1f1-461b-969b-cb98bb33443e","order":{"n_objects":2,"volume":28.380567132,"weight":15.8057892134},"status":"in_progress","timestamp":"2024-09-24 10:08:40"}
{"client_id":522965965905,"location":{"address":"Camino Guiomar Osuna, 3, Madrid, Spain","lat":40.4875325471,"lon":-3.6192964468},"order_id":"86ef10f1-4808-47b5-b3e4-e9796b38c713","order":{"n_objects":9,"volume":95.0872850877,"weight":6.7739341033},"status":"in_progress","timestamp":"2024-09-24 10:08:59"}
{"client_id":339358093226,"location":{"address":"Camino de Dar\u00edo Castilla, 2, Madrid, Spain","lat":40.4564922461,"lon":-3.8370351148},"order_id":"66f5785a-86fd-4d4a-be2a-4b7b15774552","order":{"n_objects":3,"volume":20.2856009411,"weight":41.9469027167},"status":"in_progress","timestamp":"2024-09-24 10:09:13"}
{"client_id":381743139426,"location":{"address":"Pasaje de Teo C\u00e1novas, 26, Madrid, Spain","lat":40.3976710896,"lon":-3.6982806837},"order_id":"333d2b8d-6843-41d6-af5c-d457eb251b00","order":{"n_objects":4,"volume":37.8592470775,"weight":31.9323384088},"status":"in_progress","timestamp":"2024-09-24 10:09:41"}
{"client_id":346834793121,"location":{"address":"Pasaje Amarilis Ferr\u00e1ndez, 36, Madrid, Spain","lat":40.4783011244,"lon":-3.7759771607},"order_id":"4909bdb1-91c3-484c-b496-184f2f1797a7","order":{"n_objects":4,"volume":59.6897692718,"weight":4.5024924312},"status":"in_progress","timestamp":"2024-09-24 10:10:10"}
{"client_id":762322377047,"location":{"address":"Avenida de Lucho P\u00e9rez, 63, Madrid, Spain","lat":40.4518991302,"lon":-3.7752365314},"order_id":"527564c9-c5de-49db-97f1-1f58816e4739","order":{"n_objects":8,"volume":59.697705157,"weight":3.2280422564},"status":"in_progress","timestamp":"2024-09-24 10:10:37"}
{"client_id":345998752393,"location":{"address":"Callej\u00f3n de Domitila Gimeno, 26, Madrid, Spain","lat":40.5472408409,"lon":-3.8584201684},"order_id":"cbce8b9a-b2bb-46e6-bdd1-992cb4ff0de9","order":{"n_objects":1,"volume":25.423072864,"weight":25.0888778378},"status":"in_progress","timestamp":"2024-09-24 10:11:02"}
{"client_id":730154383496,"location":{"address":"Ca\u00f1ada Juan Francisco Campillo, 83, Madrid, Spain","lat":40.4867606192,"lon":-3.6238605194},"order_id":"d62404c7-d097-4549-8f08-8862b9f79c9b","order":{"n_objects":8,"volume":71.2542678284,"weight":25.044489134},"status":"in_progress","timestamp":"2024-09-24 10:11:26"}
{"client_id":357322732433,"location":{"address":"Calle de Jer\u00f3nimo Ib\u00e1\u00f1ez, 57, Madrid, Spain","lat":40.5231627836,"lon":-3.7059842075},"order_id":"a46dcc15-6fae-4741-94b7-3d1c956bbb3c","order":{"n_objects":7,"volume":26.0244369738,"weight":23.9511268277},"status":"in_progress","timestamp":"2024-09-24 10:11:39"}
{"client_id":303856246874,"location":{"address":"Glorieta de Bego\u00f1a Collado, 95, Madrid, Spain","lat":40.3760560879,"lon":-3.5463228427},"order_id":"a70c0806-1e26-4bc5-9478-1ff71ff60997","order":{"n_objects":7,"volume":83.4541871967,"weight":18.1673986732},"status":"in_progress","timestamp":"2024-09-24 10:11:54"}
{"client_id":834579158818,"location":{"address":"Acceso de Silvio Paz, 36, Madrid, Spain","lat":40.5124525531,"lon":-3.5216937711},"order_id":"03e6dc94-8d90-43b7-acf8-7ad7061e0f11","order":{"n_objects":7,"volume":67.6912539757,"weight":21.3662076017},"status":"in_progress","timestamp":"2024-09-24 10:12:18"}
{"client_id":679130499325,"location":{"address":"Ronda de Ruth Arag\u00f3n, 934, Madrid, Spain","lat":40.4935862059,"lon":-3.8833476621},"order_id":"864665c3-2df3-488f-bb48-27666e4fb9b4","order":{"n_objects":2,"volume":57.9671859277,"weight":8.4316365424},"status":"in_progress","timestamp":"2024-09-24 10:12:48"}
{"client_id":558988498073,"location":{"address":"C. Noelia Montes, 6, Madrid, Spain","lat":40.4952500928,"lon":-3.5540816149},"order_id":"48a7ad9c-9edf-46dd-9c2b-c0b6e565255c","order":{"n_objects":3,"volume":34.7195547036,"weight":23.866407834},"status":"in_progress","timestamp":"2024-09-24 10:13:03"}
{"client_id":937481214375,"location":{"address":"Rambla de Caridad Briones, 7, Madrid, Spain","lat":40.5874831674,"lon":-3.6387096029},"order_id":"9d6eb4c2-9790-4a0a-b97e-c798ce248d44","order":{"n_objects":4,"volume":15.2052390209,"weight":12.1250219468},"status":"in_progress","timestamp":"2024-09-24 10:13:24"}
{"client_id":289685977936,"location":{"address":"Calle Paz Corral, 951, Madrid, Spain","lat":40.5943596453,"lon":-3.6833957059},"order_id":"2b785e24-e237-42e7-ab14-a48d11aadcb5","order":{"n_objects":6,"volume":42.3194091182,"weight":15.4103043373},"status":"in_progress","timestamp":"2024-09-24 10:13:53"}
{"client_id":464318559491,"location":{"address":"Plaza de Alejandra Zabaleta, 1, Madrid, Spain","lat":40.3463662759,"lon":-3.637402248},"order_id":"593ad497-5e06-4966-aa3c-da0900661cb0","order":{"n_objects":5,"volume":51.1583594088,"weight":22.3646501915},"status":"in_progress","timestamp":"2024-09-24 10:14:13"}
{"client_id":578324960174,"location":{"address":"Plaza Emelina Abell\u00e1n, 125, Madrid, Spain","lat":40.6283367848,"lon":-3.8573938751},"order_id":"2953e1b0-e81a-4a0c-bd4d-9e57df45b9cd","order":{"n_objects":2,"volume":45.751144024,"weight":17.2641528584},"status":"in_progress","timestamp":"2024-09-24 10:14:40"}
{"client_id":749388378047,"location":{"address":"Camino Armida S\u00e1nchez, 39, Madrid, Spain","lat":40.4290293793,"lon":-3.6964433033},"order_id":"b9676e43-c538-49f8-8d61-02262d27027d","order":{"n_objects":8,"volume":84.0719656575,"weight":38.8723706845},"status":"in_progress","timestamp":"2024-09-24 10:14:46"}
{"client_id":212674511616,"location":{"address":"Pasaje Modesto Pazos, 88, Madrid, Spain","lat":40.4747786459,"lon":-3.8027972951},"order_id":"ab5afde5-3aef-4867-a441-cbdabe94a16c","order":{"n_objects":5,"volume":92.3931559352,"weight":40.7837446149},"status":"in_progress","timestamp":"2024-09-24 10:14:56"}
{"client_id":615558100939,"location":{"address":"Paseo Hern\u00e1n Fernandez, 59, Madrid, Spain","lat":40.5167701431,"lon":-3.8476179353},"order_id":"bd29a3e4-b0f6-4541-9cec-bdd94dccbd93","order":{"n_objects":3,"volume":10.3203725226,"weight":34.7171333185},"status":"in_progress","timestamp":"2024-09-24 10:15:09"}
{"client_id":494134444132,"location":{"address":"Callej\u00f3n Loreto Palacio, 5, Madrid, Spain","lat":40.4480790831,"lon":-3.7389420799},"order_id":"a8a371da-607a-4eb8-8713-23ba503908d0","order":{"n_objects":8,"volume":99.8653587228,"weight":12.039688},"status":"in_progress","timestamp":"2024-09-24 10:15:19"}
{"client_id":254732290000,"location":{"address":"Camino Leonor Orozco, 399, Madrid, Spain","lat":40.4006431626,"lon":-3.5617569562},"order_id":"bab9e736-5410-41c2-a41c-02c217321578","order":{"n_objects":5,"volume":81.0338831611,"weight":48.571745123},"status":"in_progress","timestamp":"2024-09-24 10:15:41"}
{"client_id":232857005755,"location":{"address":"Pasadizo Aar\u00f3n Ferrando, 478, Madrid, Spain","lat":40.6270052179,"lon":-3.6316335453},"order_id":"3caca792-9488-400c-8769-d9ea391fa057","order":{"n_objects":2,"volume":19.1502822153,"weight":30.6184409375},"status":"in_progress","timestamp":"2024-09-24 10:16:10"}
{"client_id":888303805425,"location":{"address":"Cuesta de Visitaci\u00f3n Pera, 9, Madrid, Spain","lat":40.5232977951,"lon":-3.6326930622},"order_id":"3f0f6a99-c1e0-4512-a123-917c1499e803","order":{"n_objects":4,"volume":57.8300399989,"weight":42.103210529},"status":"in_progress","timestamp":"2024-09-24 10:16:27"}
{"client_id":407220287893,"location":{"address":"Cuesta de Paco Sandoval, 9, Madrid, Spain","lat":40.5627283506,"lon":-3.5376842187},"order_id":"134a892e-27b1-40a9-ac9e-dd1ce59f1123","order":{"n_objects":3,"volume":58.1667207509,"weight":5.8106731583},"status":"in_progress","timestamp":"2024-09-24 10:16:46"}
{"client_id":958764984283,"location":{"address":"Urbanizaci\u00f3n de Lucio Marti, 3, Madrid, Spain","lat":40.5373024171,"lon":-3.7940226651},"order_id":"af82336b-ea9f-481f-9ff1-ceb55de856b8","order":{"n_objects":3,"volume":79.7582252057,"weight":5.1521968985},"status":"in_progress","timestamp":"2024-09-24 10:17:03"}
{"client_id":526719899219,"location":{"address":"Callej\u00f3n \u00cdngrid Martinez, 4, Madrid, Spain","lat":40.3975761772,"lon":-3.8314927624},"order_id":"b99b9602-dcae-45e8-9764-40d607044bc7","order":{"n_objects":8,"volume":18.2299718621,"weight":46.3377727293},"status":"in_progress","timestamp":"2024-09-24 10:17:27"}
{"client_id":264213090770,"location":{"address":"Avenida de Carlota Arias, 44, Madrid, Spain","lat":40.4783271606,"lon":-3.8145864003},"order_id":"3fd8de64-7e3e-4c90-873d-d20e178d6d81","order":{"n_objects":6,"volume":25.0727712282,"weight":44.3781746328},"status":"in_progress","timestamp":"2024-09-24 10:17:42"}
{"client_id":661657984260,"location":{"address":"Calle de Esteban Reyes, 43, Madrid, Spain","lat":40.5107569894,"lon":-3.8027767615},"order_id":"d0aec81a-8fc6-4929-a2fc-1b738e2bff81","order":{"n_objects":6,"volume":28.7022792923,"weight":38.1571405109},"status":"in_progress","timestamp":"2024-09-24 10:18:02"}
{"client_id":860982371104,"location":{"address":"Vial Ascensi\u00f3n Pastor, 39, Madrid, Spain","lat":40.423116316,"lon":-3.6786823223},"order_id":"74cb583c-9034-450d-bab2-cd79d0f85b14","order":{"n_objects":1,"volume":41.1563745492,"weight":38.0065084054},"status":"in_progress","timestamp":"2024-09-24 10:18:27"}
{"client_id":498182264612,"location":{"address":"Rambla Estefan\u00eda Pedrosa, 3, Madrid, Spain","lat":40.3543933967,"lon":-3.6453460157},"order_id":"efd7e960-2d43-4fa6-aa03-cb2021c14573","order":{"n_objects":2,"volume":62.3133419301,"weight":3.1593168816},"status":"in_progress","timestamp":"2024-09-24 10:18:50"}
{"client_id":815980637334,"location":{"address":"Paseo de Florencio Santana, 1, Madrid, Spain","lat":40.3188082816,"lon":-3.6508925885},"order_id":"1bbfd9f7-e3a5-4023-a7a2-3abfb012ebbb","order":{"n_objects":9,"volume":60.5304703674,"weight":22.1012947657},"status":"in_progress","timestamp":"2024-09-24 10:19:18"}
{"client_id":560784871742,"location":{"address":"Pasaje de Hayd\u00e9e Bernat, 73, Madrid, Spain","lat":40.4064538143,"lon":-3.7600104935},"order_id":"f262443a-c48d-4904-91ec-8b6d9361dd5c","order":{"n_objects":8,"volume":28.2369776839,"weight":21.5001388188},"status":"in_progress","timestamp":"2024-09-24 10:19:31"}
{"client_id":971055773461,"location":{"address":"Alameda de Jos\u00e9 Antonio Carrillo, 7, Madrid, Spain","lat":40.3210298156,"lon":-3.7531071105},"order_id":"2cf1ae33-8175-4889-8a62-2242c3cbbc8d","order":{"n_objects":2,"volume":84.9617745248,"weight":33.2998376922},"status":"in_progress","timestamp":"2024-09-24 10:20:00"}
{"client_id":149872052303,"location":{"address":"Urbanizaci\u00f3n Jose Angel Martin, 24, Madrid, Spain","lat":40.3226934004,"lon":-3.661217598},"order_id":"ae7a7fbb-23bf-40d5-a2c0-601dba8b2c96","order":{"n_objects":6,"volume":47.2395507604,"weight":15.6632041597},"status":"in_progress","timestamp":"2024-09-24 10:20:16"}
{"client_id":701694233056,"location":{"address":"Glorieta de Mar\u00eda \u00c1ngeles Tudela, 20, Madrid, Spain","lat":40.3606141047,"lon":-3.679056318},"order_id":"bbf41437-ba91-43b4-82e2-76e273ff9353","order":{"n_objects":2,"volume":83.5606294692,"weight":12.8098932455},"status":"in_progress","timestamp":"2024-09-24 10:20:25"}
{"client_id":177910554979,"location":{"address":"Camino Calisto Sainz, 71, Madrid, Spain","lat":40.6100057355,"lon":-3.6502716793},"order_id":"6bbe6107-f90f-43c8-9fb0-91aec539db14","order":{"n_objects":9,"volume":63.3501794586,"weight":13.8421606464},"status":"in_progress","timestamp":"2024-09-24 10:20:51"}
{"client_id":714277245516,"location":{"address":"Vial Charo Cuervo, 1, Madrid, Spain","lat":40.3854987265,"lon":-3.8148213254},"order_id":"172dc10c-e762-4d0c-8ea4-81a109669f99","order":{"n_objects":7,"volume":66.5922835283,"weight":49.5206219141},"status":"in_progress","timestamp":"2024-09-24 10:21:02"}
{"client_id":912831985175,"location":{"address":"Vial de Adelardo Cortina, 50, Madrid, Spain","lat":40.3783723566,"lon":-3.7467877187},"order_id":"b59ce251-cc91-418c-84f3-76231c0a5f69","order":{"n_objects":1,"volume":28.691810958,"weight":24.3980151973},"status":"in_progress","timestamp":"2024-09-24 10:21:29"}
{"client_id":228731136187,"location":{"address":"Acceso de Blanca Sola, 41, Madrid, Spain","lat":40.4683045688,"lon":-3.733493341},"order_id":"be72bb0b-1cfa-4ad6-ac09-7899b87923b5","order":{"n_objects":7,"volume":89.9391113357,"weight":49.0916662338},"status":"in_progress","timestamp":"2024-09-24 10:21:54"}
{"client_id":619619770073,"location":{"address":"Paseo de Horacio Pons, 722, Madrid, Spain","lat":40.342632649,"lon":-3.8826288186},"order_id":"b3705d15-e998-49e8-8e9e-72c87cc588af","order":{"n_objects":1,"volume":80.8148550943,"weight":30.1763743452},"status":"in_progress","timestamp":"2024-09-24 10:22:20"}
{"client_id":933888132303,"location":{"address":"Via Azahara Benitez, 134, Madrid, Spain","lat":40.5802769588,"lon":-3.6939766289},"order_id":"5c94dbc1-4f4f-4be6-8b9c-aa3f897eca1e","order":{"n_objects":1,"volume":8.2929648773,"weight":43.8534956639},"status":"in_progress","timestamp":"2024-09-24 10:22:38"}
{"client_id":637153365025,"location":{"address":"Glorieta Cristian Manzano, 776, Madrid, Spain","lat":40.6174158307,"lon":-3.8303537268},"order_id":"071d3e08-a9d0-4fc7-9d53-8ffb51913d00","order":{"n_objects":5,"volume":31.2305673354,"weight":43.2697342364},"status":"in_progress","timestamp":"2024-09-24 10:22:45"}
{"client_id":972535636367,"location":{"address":"Pasadizo Ana Escalona, 89, Madrid, Spain","lat":40.5845751898,"lon":-3.8205389631},"order_id":"7000bd02-3726-4683-9e15-3b6f872719e2","order":{"n_objects":6,"volume":18.6770952729,"weight":3.3331455289},"status":"in_progress","timestamp":"2024-09-24 10:22:51"}
{"client_id":421336959563,"location":{"address":"Acceso de Marcelo Luz, 57, Madrid, Spain","lat":40.3175305159,"lon":-3.7618081775},"order_id":"4cfee6e6-aa6b-42cb-b424-4257b49c1d49","order":{"n_objects":6,"volume":88.8299226311,"weight":12.1080472244},"status":"in_progress","timestamp":"2024-09-24 10:23:02"}
{"client_id":530931923367,"location":{"address":"C. Guiomar Alarc\u00f3n, 613, Madrid, Spain","lat":40.5607693162,"lon":-3.5277327952},"order_id":"83415ccd-775e-4566-8756-3a595be0cce5","order":{"n_objects":5,"volume":5.0564534414,"weight":37.4581113361},"status":"in_progress","timestamp":"2024-09-24 10:23:16"}
{"client_id":597032442041,"location":{"address":"Pasadizo Donato Gabald\u00f3n, 477, Madrid, Spain","lat":40.4970655238,"lon":-3.861190707},"order_id":"939ec2d9-0e9e-4871-8158-ce21420cbbdc","order":{"n_objects":8,"volume":70.1140212795,"weight":36.1061687298},"status":"in_progress","timestamp":"2024-09-24 10:23:30"}
{"client_id":857770039438,"location":{"address":"Rambla Mar\u00eda Luisa Escribano, 27, Madrid, Spain","lat":40.5020569347,"lon":-3.6212642772},"order_id":"b830dded-5ca7-4f8a-ac81-dd543b63ff84","order":{"n_objects":3,"volume":77.199821169,"weight":38.829606297},"status":"in_progress","timestamp":"2024-09-24 10:23:56"}
{"client_id":548911709651,"location":{"address":"Acceso Raimundo Vall\u00e9s, 45, Madrid, Spain","lat":40.4886059774,"lon":-3.6871841814},"order_id":"ddf92b2f-f0ea-41d6-b7c0-53cb94012c61","order":{"n_objects":7,"volume":18.370325927,"weight":11.2141214472},"status":"in_progress","timestamp":"2024-09-24 10:24:04"}
{"client_id":289793754477,"location":{"address":"Callej\u00f3n \u00cd\u00f1igo Ortega, 15, Madrid, Spain","lat":40.4079540822,"lon":-3.7171642462},"order_id":"fa46fa13-25fe-41c2-9650-67cca3efbb2f","order":{"n_objects":9,"volume":53.2330741465,"weight":3.0576789673},"status":"in_progress","timestamp":"2024-09-24 10:24:34"}
{"client_id":683201874265,"location":{"address":"Alameda Ana Sof\u00eda Le\u00f3n, 3, Madrid, Spain","lat":40.6194414803,"lon":-3.6363011307},"order_id":"6489b334-2fdb-4547-8fe6-94b74e5805bf","order":{"n_objects":5,"volume":74.5164817549,"weight":5.632164564},"status":"in_progress","timestamp":"2024-09-24 10:24:56"}
{"client_id":906035734391,"location":{"address":"Pasadizo Ferm\u00edn Barrag\u00e1n, 48, Madrid, Spain","lat":40.4775376622,"lon":-3.703304138},"order_id":"24fe1733-1315-4039-8134-60f39f1a7ac4","order":{"n_objects":3,"volume":21.6773664927,"weight":38.8382609041},"status":"in_progress","timestamp":"2024-09-24 10:25:17"}
{"client_id":390921505588,"location":{"address":"Glorieta de Dominga Bosch, 70, Madrid, Spain","lat":40.3342037529,"lon":-3.8046659015},"order_id":"92a52219-c742-4b11-8522-c6c720735812","order":{"n_objects":6,"volume":13.8882813871,"weight":43.7718535152},"status":"in_progress","timestamp":"2024-09-24 10:25:31"}
{"client_id":933703070541,"location":{"address":"Urbanizaci\u00f3n de \u00cd\u00f1igo Maza, 5, Madrid, Spain","lat":40.4272937195,"lon":-3.8460987043},"order_id":"66bdd40e-298f-464b-a281-bc60a8d3eb00","order":{"n_objects":1,"volume":39.0301066077,"weight":28.4092415299},"status":"in_progress","timestamp":"2024-09-24 10:25:57"}
{"client_id":505556679430,"location":{"address":"Pasadizo de Adora Angulo, 71, Madrid, Spain","lat":40.6308767628,"lon":-3.782452677},"order_id":"b53a7cde-3994-4102-b87f-759765af8ce6","order":{"n_objects":8,"volume":20.6131396003,"weight":35.3224917279},"status":"in_progress","timestamp":"2024-09-24 10:26:19"}
{"client_id":315534503013,"location":{"address":"Rambla Noelia Barco, 49, Madrid, Spain","lat":40.5065825471,"lon":-3.6988749092},"order_id":"44037b6d-3230-450c-b043-92266bbdcb07","order":{"n_objects":6,"volume":83.3544375229,"weight":8.9856620603},"status":"in_progress","timestamp":"2024-09-24 10:26:43"}
{"client_id":511106640349,"location":{"address":"Ca\u00f1ada Javi Tamarit, 28, Madrid, Spain","lat":40.6359914545,"lon":-3.6245562348},"order_id":"24d7b05b-df52-43df-8419-b82c03f9199d","order":{"n_objects":3,"volume":15.2886478561,"weight":9.2553488966},"status":"in_progress","timestamp":"2024-09-24 10:26:58"}
{"client_id":165496562405,"location":{"address":"Glorieta Manuela Gabald\u00f3n, 1, Madrid, Spain","lat":40.3641807735,"lon":-3.7426580388},"order_id":"e8ca6634-2afb-421e-b23f-75dde9356035","order":{"n_objects":4,"volume":29.5999631586,"weight":39.158140659},"status":"in_progress","timestamp":"2024-09-24 10:27:21"}
{"client_id":670329150527,"location":{"address":"C. de Dolores Cornejo, 808, Madrid, Spain","lat":40.6228899931,"lon":-3.6686991248},"order_id":"75b92f8b-daa8-40db-a6a6-cc4ebae86101","order":{"n_objects":4,"volume":35.7014601133,"weight":40.5218572624},"status":"in_progress","timestamp":"2024-09-24 10:27:39"}
{"client_id":419374002120,"location":{"address":"Paseo de Juan Bautista Plaza, 90, Madrid, Spain","lat":40.5816913189,"lon":-3.7939506006},"order_id":"7ba8a9ed-9acd-42b6-ac76-8d4731e57a4b","order":{"n_objects":1,"volume":98.409926518,"weight":44.1167540909},"status":"in_progress","timestamp":"2024-09-24 10:28:04"}
{"client_id":278586286918,"location":{"address":"Via Sabas Campoy, 7, Madrid, Spain","lat":40.6049793233,"lon":-3.883237613},"order_id":"4d284cc0-a8ec-4440-96e4-79ca6069be52","order":{"n_objects":7,"volume":15.687747831,"weight":3.0392278294},"status":"in_progress","timestamp":"2024-09-24 10:28:26"}
{"client_id":737265678396,"location":{"address":"Ca\u00f1ada de Natalio Ortiz, 78, Madrid, Spain","lat":40.6339803041,"lon":-3.5443487745},"order_id":"f8a804ab-13ce-42b7-bfeb-37fa0af19efc","order":{"n_objects":5,"volume":65.1493217668,"weight":36.7398961316},"status":"in_progress","timestamp":"2024-09-24 10:28:41"}
{"client_id":913450926570,"location":{"address":"Alameda Sosimo Cifuentes, 1, Madrid, Spain","lat":40.4912558123,"lon":-3.7691548205},"order_id":"bb4bf169-5efe-429f-91ce-7d81db45e919","order":{"n_objects":4,"volume":95.0897649221,"weight":24.3424475392},"status":"in_progress","timestamp":"2024-09-24 10:28:53"}
{"client_id":799983173207,"location":{"address":"Camino Chema Sancho, 81, Madrid, Spain","lat":40.3136744365,"lon":-3.6695648177},"order_id":"f8674a6e-59aa-4ff0-bb3b-ccae79987917","order":{"n_objects":7,"volume":55.9331026623,"weight":34.7737541482},"status":"in_progress","timestamp":"2024-09-24 10:29:13"}
{"client_id":101302531659,"location":{"address":"Calle de Lorenza Mata, 310, Madrid, Spain","lat":40.3763650491,"lon":-3.8557846416},"order_id":"6ec7fd49-02d6-44b1-b030-f8c60eed5bac","order":{"n_objects":6,"volume":76.6969758253,"weight":29.2456742514},"status":"in_progress","timestamp":"2024-09-24 10:29:40"}
{"client_id":805173023965,"location":{"address":"Alameda Felipe Manrique, 8, Madrid, Spain","lat":40.4912800848,"lon":-3.5356324561},"order_id":"2f2c5885-d6e6-4495-9830-c6e986727f91","order":{"n_objects":7,"volume":19.68421732,"weight":11.5828815632},"status":"in_progress","timestamp":"2024-09-24 10:30:04"}
{"client_id":258505385721,"location":{"address":"Pasadizo de Epifanio Amaya, 2, Madrid, Spain","lat":40.4111556036,"lon":-3.8765599186},"order_id":"f10a5c51-8f33-4537-bb89-a813566c9b57","order":{"n_objects":4,"volume":31.2698577514,"weight":1.8566102055},"status":"in_progress","timestamp":"2024-09-24 10:30:22"}
{"client_id":355719640240,"location":{"address":"Avenida Maura Blanco, 92, Madrid, Spain","lat":40.5322761465,"lon":-3.5609848841},"order_id":"8152f259-a3fe-4c6e-b32d-f339abc9efea","order":{"n_objects":3,"volume":69.5215680245,"weight":44.0423403593},"status":"in_progress","timestamp":"2024-09-24 10:30:40"}
{"client_id":559319692845,"location":{"address":"Camino Y\u00e9ssica Mu\u00f1oz, 74, Madrid, Spain","lat":40.4750173907,"lon":-3.793592209},"order_id":"9ea2b690-bae8-425c-b9f2-2edddddeb9d5","order":{"n_objects":3,"volume":3.8411585891,"weight":43.6027780848},"status":"in_progress","timestamp":"2024-09-24 10:31:01"}
{"client_id":655129327175,"location":{"address":"Ronda Alma Fiol, 64, Madrid, Spain","lat":40.6163479125,"lon":-3.7785517313},"order_id":"10a9b334-d16b-4753-bd93-50c472376c29","order":{"n_objects":3,"volume":23.8970222809,"weight":17.1383031434},"status":"in_progress","timestamp":"2024-09-24 10:31:13"}
{"client_id":632345957951,"location":{"address":"Callej\u00f3n de Chus Artigas, 28, Madrid, Spain","lat":40.3964887725,"lon":-3.59378965},"order_id":"b99f419f-d3d9-452e-818e-58e196141745","order":{"n_objects":3,"volume":82.4289653789,"weight":11.7160770987},"status":"in_progress","timestamp":"2024-09-24 10:31:40"}
{"client_id":582382414480,"location":{"address":"Rambla Javiera Bola\u00f1os, 7, Madrid, Spain","lat":40.4047280827,"lon":-3.8316801444},"order_id":"44f7df8c-48ec-406d-ada1-2f73f3fa1eaa","order":{"n_objects":6,"volume":66.6306934377,"weight":29.8465246195},"status":"in_progress","timestamp":"2024-09-24 10:31:49"}
{"client_id":403102737862,"location":{"address":"Via Virginia Arnal, 4, Madrid, Spain","lat":40.4688616356,"lon":-3.5947253888},"order_id":"80dc2fbd-bead-4606-8461-0107438b62e5","order":{"n_objects":1,"volume":29.5358571621,"weight":27.0938407922},"status":"in_progress","timestamp":"2024-09-24 10:32:05"}
{"client_id":895512907696,"location":{"address":"Pasaje de Eulalia Alcal\u00e1, 40, Madrid, Spain","lat":40.3416584434,"lon":-3.5348474725},"order_id":"4e90bf3b-802f-4ffc-b801-a312d09c02f9","order":{"n_objects":6,"volume":22.0218607916,"weight":42.5654724299},"status":"in_progress","timestamp":"2024-09-24 10:32:25"}
{"client_id":892193231972,"location":{"address":"Plaza Marta Gallardo, 89, Madrid, Spain","lat":40.5496123357,"lon":-3.6152017366},"order_id":"5ff7e98d-440e-4a99-851c-9fd5987052b1","order":{"n_objects":8,"volume":22.1983491896,"weight":33.9669281556},"status":"in_progress","timestamp":"2024-09-24 10:32:48"}
{"client_id":569399015863,"location":{"address":"Callej\u00f3n Consuela Gilabert, 84, Madrid, Spain","lat":40.3351038571,"lon":-3.6845530075},"order_id":"a5d70983-c682-40a9-a1db-3cd3de93b841","order":{"n_objects":6,"volume":54.9939536368,"weight":43.2890985778},"status":"in_progress","timestamp":"2024-09-24 10:32:56"}
{"client_id":548588071942,"location":{"address":"C. de Prudencio Frutos, 98, Madrid, Spain","lat":40.6383047163,"lon":-3.5948859102},"order_id":"f383cf58-a913-4d19-bb01-dfea6e80919f","order":{"n_objects":5,"volume":29.7228125631,"weight":12.87087938},"status":"in_progress","timestamp":"2024-09-24 10:33:08"}
{"client_id":509391196532,"location":{"address":"Vial de David Laguna, 91, Madrid, Spain","lat":40.5076318118,"lon":-3.5687947064},"order_id":"72bda1a5-9fed-4e6d-9b7f-2793a98185ee","order":{"n_objects":4,"volume":73.6359086427,"weight":13.2147994004},"status":"in_progress","timestamp":"2024-09-24 10:33:38"}
{"client_id":840631381007,"location":{"address":"Urbanizaci\u00f3n de Cristian Escamilla, 18, Madrid, Spain","lat":40.6244842386,"lon":-3.6163756543},"order_id":"79a71772-2df7-457c-923d-1036fa5c64a4","order":{"n_objects":8,"volume":49.1199753208,"weight":42.5204536215},"status":"in_progress","timestamp":"2024-09-24 10:33:53"}
{"client_id":104784469159,"location":{"address":"Acceso Sarita Llabr\u00e9s, 4, Madrid, Spain","lat":40.4204243327,"lon":-3.6352579831},"order_id":"048d855e-3c7a-4f83-8e77-9805931b5f69","order":{"n_objects":1,"volume":33.1032544911,"weight":26.9487449062},"status":"in_progress","timestamp":"2024-09-24 10:34:23"}
{"client_id":742533845802,"location":{"address":"Callej\u00f3n de Juan Luis Cordero, 316, Madrid, Spain","lat":40.532952645,"lon":-3.6735562151},"order_id":"06dbe87a-7405-4ea2-8f0e-2a35e7223c91","order":{"n_objects":1,"volume":76.130521652,"weight":30.835771315},"status":"in_progress","timestamp":"2024-09-24 10:34:33"}
{"client_id":848738844076,"location":{"address":"Ca\u00f1ada de Seve Cid, 78, Madrid, Spain","lat":40.3157033634,"lon":-3.5745863257},"order_id":"fc767f15-76c5-4a57-a2dc-82dd0e91d678","order":{"n_objects":8,"volume":51.7629054951,"weight":4.2445788037},"status":"in_progress","timestamp":"2024-09-24 10:34:48"}
{"client_id":707233697503,"location":{"address":"Camino de Gisela Raya, 30, Madrid, Spain","lat":40.3509712361,"lon":-3.7747896675},"order_id":"40bdb1dd-59c5-48c3-a9bd-40883dcafebe","order":{"n_objects":8,"volume":71.1483846565,"weight":28.276628965},"status":"in_progress","timestamp":"2024-09-24 10:35:13"}
{"client_id":745820710458,"location":{"address":"Avenida de Anacleto Fiol, 39, Madrid, Spain","lat":40.3863191021,"lon":-3.6276260583},"order_id":"d390be37-b667-4bc1-bf41-2583de1d104b","order":{"n_objects":7,"volume":86.2360937395,"weight":9.4832122941},"status":"in_progress","timestamp":"2024-09-24 10:35:31"}
